site_id,name,type,lat,lon
school_278375770,Kellison Elementary School,school,38.5127507,-90.4941887
school_278375771,Rockwood South Middle School,school,38.5114077,-90.4969628
school_354050832,Clara Barton School,school,38.8902933,-90.1480911
school_354120432,Madison Senior High School,school,38.6822723,-90.1428865
school_354160617,Jackson School,school,38.5008854,-90.1645554
school_354160668,Jerome Elementary School,school,38.5617181,-90.1528879
school_354161026,Saint Teresa Academy,school,38.6128285,-90.1284421
school_354161179,Early Learning Facility Pitzman,school,38.5825514,-90.1803887
school_354161271,East Saint Louis-Lincoln High School,school,38.6143009,-90.1571594
school_354219641,Saint Catherine Leboure School,school,38.5611625,-90.1537213
school_354221444,Harris Elementary School,school,38.682828,-90.1526091
school_354231295,Venice Elementary School,school,38.6613756,-90.1675
school_354231353,Saint Mark School,school,38.6728282,-90.1687208
school_354231362,Saint Marys School,school,38.6856058,-90.1526091
school_354231478,Sacred Heart School,school,38.7086609,-90.131497
school_354231496,Prather Elementary School,school,38.71499,-90.1590238
school_354231790,Lincoln High School,school,38.6617497,-90.1680174
school_354231930,Mark Twain Elementary School,school,38.8906034,-90.130108
school_354231948,Madison Middle School,school,38.686439,-90.143442
school_354231959,Irving Elementary School,school,38.8969926,-90.1928878
school_354232257,East Elementary School,school,38.8953257,-90.1512197
school_354242799,Park Annex Elementary School,school,38.6131063,-90.1284421
school_354242833,Miles D Davis Elementary School,school,38.6267173,-90.1401091
school_354242840,Billy Jones Elementary School,school,38.6175507,-90.1428871
school_354242853,Alta-Sita Elementary School,school,38.6003287,-90.140665
school_354242873,Attucks Elementary School,school,38.604773,-90.1364981
school_354242891,Jackson Elementary School,school,38.6231062,-90.1362201
school_354242902,Huffman Elementary School,school,38.563385,-90.1878891
school_354242949,Lilly-Freeman Elementary School,school,38.617273,-90.1531653
school_354242972,Hughes-Quinn/Rock Junior High School,school,38.6269949,-90.1484041
school_354243066,Penniman Elementary School,school,38.5589404,-90.1678885
school_354243521,Cahokia High School,school,38.5653292,-90.1648327
school_354243542,Donald McHenry Elementary School,school,38.6181062,-90.1228864
school_354243578,Elizabeth Morris Elementary School,school,38.5533849,-90.1742776
school_354258168,Immaculate Conception School,school,38.8908815,-90.1778873
school_354258381,Saint Patricks School,school,38.8908814,-90.1695536
school_354260030,Paul L Dunbar School,school,38.6055284,-90.1527413
school_354260044,Park School,school,38.6136617,-90.1253865
school_354260340,Immaculate Conception School,school,38.6278284,-90.1367757
school_354260517,Saint Josephs School,school,38.6194617,-90.1437172
school_354260538,Saint Elizabeths Parochial School,school,38.613384,-90.1292756
school_354260648,Saint Adalberts School,school,38.6300907,-90.1496944
school_354276253,Dunbar Elementary School,school,38.6046,-90.1519
school_358053534,Saint David School,school,38.4426608,-90.3624308
school_358062070,Leight School,school,38.4392212,-90.4887333
school_358066845,Allenton School,school,38.4989424,-90.6742949
school_358066888,Bayless School,school,38.551997,-90.3009485
school_358066914,Black Jack School,school,38.7853292,-90.5345648
school_358066965,Bonfils School,school,38.7742177,-90.4317841
school_358067001,Brentwood High School,school,38.6213632,-90.3538907
school_358067141,Chesterfield School,school,38.6544972,-90.6359584
school_358067211,Concordia School,school,38.5739398,-90.407338
school_358067366,Douglass High School,school,38.6014413,-90.3567833
school_358067386,Dunbar School,school,38.7403287,-90.3248366
school_358067417,Elm Grove School,school,38.7831061,-90.3567818
school_358067468,Fernridge School,school,38.6837082,-90.4866203
school_358067500,Fort Zumwalt School,school,38.8036631,-90.6973477
school_358067607,Goodal School,school,38.5811637,-90.3553945
school_358067855,Kampville School,school,38.8528282,-90.5292862
school_358068001,Lincoln School,school,38.7789401,-90.4909524
school_358068146,McKnight School,school,38.658663,-90.3548382
school_358068247,Mount Calvary School,school,38.6189412,-90.3584498
school_358068444,Our Lady of Fatima School,school,38.7753282,-90.3106694
school_358068507,Pea Ridge School,school,38.8108825,-90.1953878
school_358068552,Phelps School,school,38.8875496,-90.4731731
school_358068573,Pitman School,school,38.5842196,-90.4059516
school_358068736,Rosary School,school,38.7925505,-90.3745599
school_358068763,Sacred Heart Academy,school,38.7869955,-90.4806743
school_358068768,Sacred Heart School,school,38.5050537,-90.6204041
school_358068773,Saint Aloysius School,school,38.7911605,-90.1909432
school_358068777,Saint Clements School,school,38.6086639,-90.4342857
school_358068829,Saint Joseph School,school,38.7436635,-90.653458
school_358068837,Saint Josephs Convent of Mercy,school,38.5756082,-90.3423386
school_358068846,Saint Louis State Training School,school,38.76755,-90.2292779
school_358068857,Saint Michaels School,school,38.5939413,-90.3306713
school_358068899,Scudder School,school,38.7631065,-90.3767825
school_358069002,Thomas Jefferson School,school,38.5397755,-90.3951184
school_358069021,Turner School,school,38.5653309,-90.4028962
school_358069023,Turner School,school,38.7386613,-90.216222
school_358069094,Vernon School,school,38.7394953,-90.3198364
school_358069135,Walnut Grove School,school,38.8681051,-90.3753929
school_358069141,Washington Park School,school,38.5664417,-90.3559502
school_358069216,Wright School,school,38.6336635,-90.4131737
school_358069247,Zion School,school,38.7148823,-90.4406061
school_358069251,Zion School,school,38.7419965,-90.5854003
school_358069373,Maple School,school,38.8992174,-90.675957
school_358069826,Franklin School,school,38.7878288,-90.4803965
school_358069869,Lea Ridge School,school,38.7586637,-90.7117931
school_358069872,Baldwin School,school,38.8611619,-90.6115109
school_358069911,Smelzer Lake School,school,38.8919931,-90.2612232
school_358069926,Cul de Sac School,school,38.8339391,-90.4353948
school_358069930,Garrett School,school,38.7808841,-90.4081722
school_358069933,Hyatt Valley School,school,38.82005,-90.34067
school_358070183,Fordyce House,school,38.4458867,-90.2978939
school_358070209,Queen of All Saints School,school,38.4429786,-90.307757
school_358070259,Wohlwend School,school,38.4590598,-90.3045605
school_358083529,Longfellow School,school,38.6072743,-90.3045593
school_358083634,Peace School,school,38.5072752,-90.295671
school_358083640,Principia College,school,38.6635177,-90.2762879
school_358083654,Saint Andrew School,school,38.534497,-90.2759479
school_358083663,Saint James the Greater School,school,38.6256074,-90.2928921
school_358083682,Saint Marys School,school,38.6964398,-90.2445566
school_358083725,Windsor School,school,38.5625524,-90.2762254
school_358083762,Dozier School,school,38.6611626,-90.2853916
school_358083798,Bates School,school,38.6522734,-90.2273342
school_358083877,Mason School,school,38.6106076,-90.2901144
school_358083947,Maryville College and Academy of the Sacred Heart,school,38.5801045,-90.2357731
school_358084117,Missouri Baptist College - Saint Louis,school,38.6464415,-90.4623417
school_358084371,Boonslick State School,school,38.7766782,-90.6773651
school_358084378,Saint Dominic High School,school,38.8062482,-90.7223228
school_358084379,North Middle School,school,38.8047742,-90.6973476
school_358084380,Joseph L Mudd School,school,38.8139407,-90.689014
school_358084383,Mount Hope School,school,38.839774,-90.7334595
school_358084384,Fort Zumwalt North High School,school,38.8200516,-90.6681799
school_358084386,Forest Park School,school,38.8150518,-90.6881806
school_358084390,Progress South Elementary School,school,38.7783427,-90.6768608
school_358084808,Bethesda Temple Bible Institute,school,38.7185077,-90.2985679
school_358086365,Morgan Selvidge Middle School,school,38.5873618,-90.5588504
school_358086366,MRH Early Childhood Center,school,38.6118825,-90.3267574
school_358086383,Normandy Technological School,school,38.691967,-90.269353
school_358086386,North High School,school,38.6902029,-90.4682488
school_358086391,Northview School,school,38.7800738,-90.2958413
school_358086398,Northwest Valley School,school,38.4198,-90.5611
school_358086450,Point Elementary School,school,38.4409,-90.3213
school_358086462,Pond Elementary School,school,38.5788504,-90.6510975
school_358086500,River Bend Elementary School,school,38.6855,-90.5034
school_358086505,Robert Drummond Elementary School,school,38.7279,-90.3879
school_358086544,Ross Elementary School,school,38.6802326,-90.4581036
school_358086560,Saint Charles West High School,school,38.8013066,-90.5325261
school_358086572,Saint James the Greater Catholic School,school,38.6254,-90.293116
school_358086578,Premier Charter School,school,38.6011599,-90.2789329
school_358086586,Saint Louis County Fire Academy,school,38.6717,-90.3009
school_358086588,Saint Lucas Evangelical Lutheran School,school,38.5644,-90.2782
school_358086592,Saint Timothys Catholic School,school,38.5469,-90.2952
school_358086601,Salem Lutheran School,school,38.5585107,-90.3034718
school_358086604,Samuel Church Pre-Kindergarten School,school,38.6564725,-90.3437734
school_358086622,Sisters of Notre Dame School,school,38.5221,-90.3112
school_358086624,Sorrento Springs Elementary School,school,38.575,-90.5277
school_358086628,Parkway South High School,school,38.5772523,-90.5120414
school_358086630,Parkway Southwest Middle School,school,38.5776818,-90.5184272
school_358086637,Stanton Elementary School,school,38.5206617,-90.4822926
school_358086648,Tower Grove Christian Academy,school,38.6091039,-90.2563105
school_358086685,Dressel Elementary School,school,38.5316188,-90.3482881
school_358086696,Village Lutheran Church in Ladue Preschool,school,38.6412,-90.3689
school_358086710,Walnut Grove Elementary School,school,38.765848,-90.3121672
school_358086894,Ackerman School,school,38.7784347,-90.2964164
school_358086910,Bayless Elementary School,school,38.5522,-90.3006
school_358086911,Bayless Junior High School,school,38.5522,-90.3006
school_358086912,Bayless Senior High School,school,38.5523,-90.3007
school_358086915,Bel-Nor Ridge Elementary School,school,38.715,-90.3272
school_358086916,Benton Elementary School,school,38.7861,-90.4877
school_358086919,Bermuda Elementary School,school,38.7253,-90.2934
school_358086922,Blackhurst Elementary School,school,38.7927284,-90.4971798
school_358086928,Brentwood Middle School,school,38.6205957,-90.3536759
school_358086929,Briar Crest Elementary School,school,38.7120413,-90.4054221
school_358086942,Castlio Elementary School,school,38.7294,-90.6035
school_358086943,Center for Creative Learning School,school,38.5830977,-90.5944752
school_358086946,Central Elementary School,school,38.743072,-90.3079824
school_358086947,Parkway Central High School,school,38.6647734,-90.504453
school_358086971,Compton-Drew Middle School,school,38.6289163,-90.2720934
school_358086975,Coverdell Elementary School,school,38.8057,-90.4932
school_358086982,Don Earl Early Childhood Center,school,38.4479328,-90.3728388
school_358086985,Early Child Family Education Center,school,38.7449715,-90.6138612
school_358087013,Robinson Elementary School,school,38.5699596,-90.4256566
school_358087015,Glasgow Elementary School,school,38.7578,-90.2056
school_358087017,Green Pines Elementary School,school,38.5906468,-90.6271186
school_358087018,Green Trails Elementary School,school,38.6692029,-90.5275755
school_358087046,Hancock Place Middle School,school,38.5247805,-90.2824141
school_358087059,Hancock Senior High School,school,38.5247157,-90.2809647
school_358087061,Hanna Woods Elementary School,school,38.5795768,-90.5089035
school_358087062,Hardin Middle School,school,38.7919424,-90.496536
school_358087072,Heritage Landing School,school,38.7514,-90.5507
school_358087075,Highland Elementary School,school,38.7551,-90.1964
school_358087076,Hiram Neuwoehner School,school,38.6323,-90.4414
school_358087086,House Springs Elementary School,school,38.4176,-90.5639
school_358087095,Jefferson Middle School,school,38.7984217,-90.5324082
school_358087116,Kirkwood United Methodist Church Preschool,school,38.5835013,-90.4088307
school_358087122,Lee Hamilton Elementary School,school,38.7572077,-90.3007668
school_358087123,Lewis and Clark Career Center,school,38.7943936,-90.534437
school_358087129,Lucas Crossing Elementary Complex School,school,38.7073,-90.307
school_358087130,Lusher Elementary School,school,38.8153,-90.3486
school_358087147,Mid Rivers Elementary School,school,38.7876661,-90.6396752
school_358087162,Wilkinson Early Childhood Center,school,38.6095,-90.3144
school_358087166,Wohlwend Elementary School,school,38.459121,-90.3045857
school_358087171,Word Academy Child Development Center,school,38.7476,-90.2537
school_358087174,Wren Hollow Elementary School,school,38.5773463,-90.5214485
school_358087186,Zion Lutheran School,school,38.7445255,-90.3062984
school_466504117,Henry Elementary School,school,38.6106836,-90.5199532
school_528261839,High Ridge Elementary School,school,38.4626573,-90.534998
school_676478308,Whitfield,school,38.6537459,-90.4811654
school_886774490,school_886774490,school,38.7438316,-90.444405
school_1041650301,Wilott Christian Academy,school,38.7765371,-90.5954447
school_1217084947,Duchesne High School,school,38.7978006,-90.5002668
school_1909005417,Garrett Elementary School,school,38.7756297,-90.3969341
school_1909092816,St. Ferdinand School,school,38.8065645,-90.354236
school_2104744501,City Garden Montessori,school,38.6200582,-90.2555128
school_2153367915,Urshan Graduate School of Theology,school,38.8010094,-90.365078
school_2437954462,Brown-Mackie College,school,38.5443727,-90.4364409
school_2533391425,Fort Zumwalt South High School,school,38.7887178,-90.6691855
school_2762384412,Confluence Academy,school,38.6544305,-90.1966993
school_3251416535,Saint Francis of Assisi School,school,38.4794731,-90.3031446
school_3266853472,Gateway Elementary School,school,38.6411904,-90.2108595
school_3266853473,Gateway Middle School,school,38.6413202,-90.2120273
school_4743114174,The College School,school,38.5966737,-90.3329179
school_5792330717,Independence Elementary School,school,38.7069393,-90.6667995
school_5922733192,Twin Chimneys Elementary School,school,38.7633207,-90.7308886
school_5947616986,Quality Testing,school,38.6987279,-90.409216
school_6143999401,James E. Williams Learning Center,school,38.6260928,-90.1491976
school_6143999402,Vivian D. Adams Early Childhood Center,school,38.6271484,-90.148023
school_6341490943,Orchard Farm Elementary School,school,38.8992675,-90.4476474
school_6341490951,Orchard Farm Middle School,school,38.89983,-90.4486321
school_6841130081,Saint Gerard Majella School,school,38.5854664,-90.4430772
school_6954930171,Churchill Center and School,school,38.6307126,-90.4521123
school_6955130567,"Christ, Prince of Peace School",school,38.5998993,-90.4949929
school_7099307544,Parkway Central Middle,school,38.6680831,-90.5037054
school_9951344998,Saul Mirowitz Jewish Community School,school,38.6503252,-90.4768261
school_11078885630,Jackie Joyner Kersee Academy,school,38.6248703,-90.1253152
school_11283656824,St. John Vianney,school,38.560748,-90.4108005
school_11307759331,South City Community School,school,38.6071697,-90.2698434
school_11784097269,Launch Code,school,38.6515037,-90.2594824
school_11895321805,school_11895321805,school,38.5608061,-90.4111373
school_12089677369,Julia Goldstein Early Childhood Education Center,school,38.6596803,-90.3087174
school_12090351897,Ralph M. Captain Elementary School,school,38.6389561,-90.3062133
school_12563940488,North Technical High School,school,38.779628,-90.2940027
school_12645675201,The Goddard School,school,38.7506155,-90.7390274
school_13315558101,Dayspring Arts & Education,school,38.7114042,-90.4389771
school_13440680301,St. Louis School of Phlebotomy,school,38.6623647,-90.3084953
school_42909507,Rockwood Summit High School,school,38.5176496,-90.4935002
school_42910579,school_42910579,school,38.5117961,-90.4952718
school_43432697,Bowles Elementary School,school,38.5122867,-90.4758638
school_44804676,school_44804676,school,38.520476,-90.4821254
school_105588723,McCluer High School,school,38.7714418,-90.3112096
school_106846590,Kirkwood High School,school,38.5917146,-90.4237729
school_122100944,school_122100944,school,38.6390073,-90.30664
school_149385949,John Burroughs School,school,38.644138,-90.3691544
school_149388953,Mary Institute and Saint Louis Country Day School,school,38.6581971,-90.4001643
school_149388956,Spoede Elementary School,school,38.663097,-90.416955
school_149421551,Parkway Northeast Middle School,school,38.6574046,-90.4508073
school_149421554,Ladue Schools West Campus,school,38.6525963,-90.4199056
school_149421561,Chaminade College Preparatory School,school,38.6498541,-90.4090595
school_149421588,De Smet Jesuit High School,school,38.6614735,-90.4456786
school_149426659,Clayton High School,school,38.6500378,-90.3467971
school_149427296,Brittany Woods Middle School,school,38.6700118,-90.3466589
school_149430292,St. Joseph's Academy,school,38.6242414,-90.4089077
school_149430294,Visitation Academy,school,38.6369146,-90.4403234
school_149430300,Ladue Horton Watkins High School,school,38.6397885,-90.3980269
school_149431198,Mason Ridge Elementary School,school,38.6368768,-90.4821215
school_149541469,Saint Mary's High School,school,38.575289,-90.2519068
school_149711787,Oak Hill Elementary School,school,38.5888136,-90.2638788
school_149716492,Woodward Elementary School,school,38.5657152,-90.2499579
school_149732043,Roosevelt High School,school,38.5997666,-90.2370107
school_149732048,Kennard Classical Junior Academy,school,38.5981056,-90.2765496
school_149732061,Central Visual and Performing Arts School High School & Cleveland NJROTC High School,school,38.6045161,-90.2711595
school_150246925,Froebel Literacy Academy,school,38.5881512,-90.2341374
school_150260480,Meramec Elementary School,school,38.5798925,-90.2323275
school_151154303,Adams Elementary School,school,38.624652,-90.2573129
school_151229177,Lutheran North High School,school,38.7154173,-90.2864181
school_151230739,Normandy Junior High School,school,38.7088245,-90.3071305
school_151292027,Affton High School,school,38.5593056,-90.3244706
school_151540259,Walbridge Elementary School,school,38.6935146,-90.2507252
school_151543938,Shenandoah Elementary School,school,38.608865,-90.2368851
school_151647064,Mel Carnahan High School of the Future,school,38.5815887,-90.2290993
school_151926099,Sigel Elementary School,school,38.6102276,-90.2166025
school_151926177,McKinley Classical Leadership Academy,school,38.609833,-90.2191171
school_152093302,New City School,school,38.6491516,-90.2713487
school_152109524,Jackson Park Elemenary School,school,38.663685,-90.3296724
school_152109538,University City Senior High School,school,38.6647796,-90.3302448
school_152170243,Oakville Elementary School,school,38.4787036,-90.3207215
school_152235538,Griffith Elementary School,school,38.750088,-90.2885625
school_152238669,Blades Elementary School,school,38.4826821,-90.3327215
school_152242030,Moline Elementary School,school,38.7478919,-90.2652019
school_152243121,Saint Margarite Mary School,school,38.4864457,-90.3297168
school_152264390,Flynn Park Elementary School,school,38.6538896,-90.3226091
school_152333464,Freedom School,school,38.680221,-90.3491977
school_152333465,Daniel Boone School,school,38.6802023,-90.3469051
school_152333468,Torah Prep Girls' School,school,38.6669998,-90.3468781
school_152348699,McCluer South-Berkeley High School,school,38.731657,-90.3047435
school_152363233,Lyon Academy at Blow School,school,38.554633,-90.2571707
school_152500106,Monroe Elementary School,school,38.5881739,-90.2247973
school_152500122,Ames Visual and Performing Arts Elementary School,school,38.653034,-90.194919
school_152503841,Peabody Elementary School,school,38.6167632,-90.2048215
school_153089314,Glenridge School,school,38.6394822,-90.3286596
school_153089315,Meramec Elementary School,school,38.6445999,-90.3398131
school_153879955,Jefferson Elementary School,school,38.6409575,-90.2034018
school_154388542,Sappington Elementary School,school,38.542628,-90.3650266
school_154391852,Concord School,school,38.521715,-90.3706916
school_154391861,Robert H. Sperreng Middle School,school,38.517624,-90.368291
school_154394393,Kennerly Elementary School,school,38.5112963,-90.3776443
school_154398973,Washington Middle School,school,38.4928613,-90.3705949
school_154398975,Trautwein Elementary School,school,38.4941482,-90.3690553
school_154400954,Assumption School,school,38.5000835,-90.3596577
school_154552518,Abiding School,school,38.4855678,-90.3649362
school_154554006,Bierbaum Elementary School,school,38.5301411,-90.3098469
school_154559842,Maplewood-Richmond Heights High School,school,38.6143185,-90.3242262
school_156851831,Stevens Middle Community Education Center,school,38.6500375,-90.2439898
school_156866693,Metro Academic and Classical High School,school,38.6409903,-90.2433183
school_156975973,Ritenour Middle School,school,38.7037737,-90.3481197
school_156977488,Holman Elementary School,school,38.7239295,-90.3457025
school_156980515,Ritenour High School,school,38.7118058,-90.3572707
school_156982415,Hoech Middle School,school,38.718338,-90.3856022
school_156990603,Wyland Elementary School,school,38.6939822,-90.3557428
school_157070522,Pattonville Heights Middle School,school,38.7177857,-90.4254363
school_157097222,McKelvey Elementary School,school,38.7107221,-90.456391
school_157516040,Barnwell Middle School,school,38.7421096,-90.5644336
school_157516041,Becky-David Elementary School,school,38.7442309,-90.5637776
school_157522180,Francis Howell Central High School/ Saeger Middle School,school,38.7478523,-90.6465122
school_157543558,school_157543558,school,38.7624993,-90.5632426
school_157548640,Fort Zumwalt East High School,school,38.7891031,-90.586552
school_157550537,George M Null Elementary School,school,38.7979287,-90.516632
school_157552321,Saint Charles West High School,school,38.801807,-90.5329929
school_157552325,Monroe Elementary School,school,38.7998458,-90.5335371
school_157552326,Jefferson Middle School,school,38.798271,-90.5335247
school_158028664,Central Elementary School,school,38.7446283,-90.6119915
school_158028667,Hollenbeck Middle School,school,38.7445566,-90.614745
school_160374159,Fort Zumwalt West High School,school,38.7902418,-90.7292918
school_160657552,Fort Zumwalt South Middle School,school,38.7780422,-90.6791003
school_160970253,Pheasant Point Elementary School,school,38.7470256,-90.6960926
school_160970264,school_160970264,school,38.7450184,-90.7020306
school_163224623,St. Louis University High School,school,38.6274092,-90.269095
school_165300559,Airport Elementary School,school,38.7515169,-90.3267554
school_165300563,school_165300563,school,38.7547459,-90.3142244
school_165302078,Berkeley Middle School,school,38.7604685,-90.3262143
school_165322428,school_165322428,school,38.7710991,-90.3110008
school_165326806,Commons Lane Elementary School,school,38.7889556,-90.2867848
school_165333940,McCluer North High School,school,38.7902382,-90.303154
school_165333941,Parker Road Elementary School,school,38.7946261,-90.3031774
school_165333945,Robinwood Elementary School,school,38.7817857,-90.3058907
school_165336343,Jury Elementary School,school,38.7885292,-90.2696974
school_165337411,Jana Elementary School,school,38.8154939,-90.3182337
school_177211002,Niedringhaus Elementary School,school,38.7162888,-90.1294712
school_181623944,Russell Elementary School,school,38.7951424,-90.3682664
school_183251439,Hazelwood West Middle School,school,38.7807797,-90.4124519
school_189980690,Halls Ferry Elementary School,school,38.7995526,-90.2950771
school_192771589,Cold Water Elementary School,school,38.8260342,-90.3251937
school_192771628,Hazelwood Central High School,school,38.8312309,-90.3161012
school_200487205,Saint Margaret of Scotland School,school,38.6151778,-90.247541
school_202535436,Grand Center Arts Academy,school,38.6406374,-90.2308427
school_239206180,school_239206180,school,38.6727198,-90.1683753
school_241233137,Granite City High School,school,38.7195155,-90.1254402
school_241233138,Walter F Coolidge Junior High School,school,38.7213306,-90.1240307
school_242994493,W. W. Keysor Elementary School,school,38.5917774,-90.4170223
school_247500361,Harvest Ridge Elementary School,school,38.7517012,-90.5247669
school_249401280,Adventure Learning Center,school,38.5604944,-90.555555
school_254447969,school_254447969,school,38.5416936,-90.4148077
school_254447972,Bus Lot,school,38.5416151,-90.4159181
school_255106855,school_255106855,school,38.6614994,-90.1678162
school_261185715,school_261185715,school,38.8134686,-90.6974934
school_273358285,school_273358285,school,38.682342,-90.1432032
school_276252028,KIPP St. Louis High School,school,38.6357453,-90.2123424
school_279658886,school_279658886,school,38.7188794,-90.4226795
school_288490995,Crestview Middle School,school,38.6067836,-90.5928161
school_288491108,Ellisville Elementary,school,38.5965543,-90.5904914
school_299174205,Cool Valley Elementary School,school,38.7276313,-90.3047402
school_313731620,Westminster Christian Academy,school,38.6370168,-90.5035714
school_314361776,Vogt Elementary School,school,38.7447855,-90.3025642
school_318772022,school_318772022,school,38.4948761,-90.2868584
school_318772023,Bernard Middle School,school,38.4954659,-90.3260072
school_318772025,Forder Elementary School,school,38.5250101,-90.2874398
school_318772031,Margaret Buerkle Middle School,school,38.5039379,-90.3073223
school_318772032,Mehlville High School,school,38.5128256,-90.3133569
school_318817985,Bishop Dubourg High School,school,38.5806657,-90.2957503
school_318817986,Busch Middle School of Character,school,38.5778253,-90.2965759
school_318817987,Nottingham Community Access and Job Training High School,school,38.5875702,-90.304998
school_319341681,Barrington Elementary School,school,38.83547,-90.2958392
school_319341682,Brown Elementary School,school,38.8318839,-90.3201797
school_319341683,Hazelwood North Middle School,school,38.8390732,-90.2893324
school_319341684,school_319341684,school,38.8332141,-90.315585
school_319341685,Keeven Elementary School,school,38.7775994,-90.2636272
school_320183684,Samuel Shepard Jr. Gateway Educational Park,school,38.6409075,-90.2105621
school_340988662,Barack Obama Elementary School,school,38.6938605,-90.2776949
school_345613992,Hazelwood East High School,school,38.7752324,-90.2344636
school_345613995,Hazelwood East Middle School,school,38.772192,-90.2344191
school_345634325,Grannemann Elementary School,school,38.7815945,-90.2436784
school_345634628,Riverview Gardens High School,school,38.7552395,-90.2140758
school_363412305,Saint Ferdinand School (historical),school,38.7964937,-90.3342773
school_385159987,Saint Paul's Lutheran School (South Campus),school,38.5988268,-90.4446058
school_398792398,Bryan Hill Elementary School,school,38.6711633,-90.2125076
school_404979904,Geggie Elementary School,school,38.4964995,-90.6302958
school_405953014,Francis Howell High School,school,38.7021522,-90.7162862
school_405953015,Francis Howell Union High School,school,38.7025184,-90.7141459
school_431058383,Ballwin Elementary School,school,38.590395,-90.5425207
school_431069214,Woerther Elementery School,school,38.5805222,-90.5564102
school_431069622,Morgan Selvidge Middle School,school,38.5867791,-90.5600756
school_431072487,Westridge Elementary School,school,38.6011159,-90.5681658
school_431075955,Claymont Elementary School,school,38.6099031,-90.5509708
school_433057926,Henry Elementary School,school,38.6108401,-90.5190969
school_433281636,Group Play Fields,school,38.5861859,-90.5587119
school_446427950,KIPP Triumph Academy,school,38.6772747,-90.2100934
school_457361531,Early Childhood Family Education Center,school,38.7055462,-90.6693248
school_462412771,Raintree Learning Center,school,38.5984489,-90.5520485
school_477986208,Sacred Heart Convent,school,38.6439637,-90.2543298
school_481106816,Cardinal Ritter College Preparatory High School,school,38.6426184,-90.2361425
school_481108422,Clyde Miller Career Academy,school,38.6426876,-90.2277651
school_481108811,Vashon High School,school,38.6473137,-90.2200475
school_486443055,St. Monica's Catholic School,school,38.6713227,-90.4511884
school_488038844,Eureka Elementary School,school,38.5043145,-90.6355889
school_488494878,Blevins Elementary School,school,38.5108457,-90.6252573
school_488494882,Eureka High School,school,38.5147537,-90.6286161
school_489085479,Saint Paul's Lutheran School (North Campus),school,38.6045726,-90.4433252
school_489992397,North Kirkwood Middle School,school,38.6010615,-90.4189614
school_494746145,Discovery Elementary School,school,38.8190907,-90.4773387
school_506138138,Forsyth School,school,38.6454543,-90.3029269
school_506148061,Rogers Elementary School,school,38.4197506,-90.3365247
school_508803897,Vandover Early Childhood,school,38.5239351,-90.4882864
school_509312495,George Guffey Elementary School,school,38.4828176,-90.4449123
school_509880945,school_509880945,school,38.5607801,-90.1284466
school_510795916,Our Savior Lutheran,school,38.5216071,-90.46258
school_511761920,Pattonville High School,school,38.7418327,-90.4518556
school_515705277,Bridges High School,school,38.4493207,-90.3697319
school_518843818,Beaumont High School,school,38.6623081,-90.2221819
school_521663341,Villa di Maria Montessori School,school,38.6033373,-90.41266
school_524752640,Family Treehouse Christian Academy,school,38.529208,-90.4896582
school_525018357,Valley Park Middle School,school,38.5519187,-90.4957787
school_525018360,Valley Park Elementary School,school,38.5516711,-90.4944867
school_525018364,Valley Park Senior High School,school,38.5529349,-90.4951325
school_525937425,Uthoff Valley Elementary School,school,38.5353161,-90.4644354
school_526254070,Old Bonhomme Elementary School,school,38.6690261,-90.388713
school_526291904,St. Paul School,school,38.5163663,-90.4474459
school_526334102,Logos School,school,38.6671319,-90.3657032
school_526549568,St. John Vianney High School,school,38.5625053,-90.4105818
school_526811096,International Schoolhouse,school,38.6264232,-90.3121306
school_530094155,Lakeside Children's Academy,school,38.5656948,-90.4797205
school_539726311,Holman Middle School,school,38.7371757,-90.3940659
school_541363871,Patrick Henry Downtown Academy,school,38.637295,-90.1913982
school_542476119,Clay Elementary School,school,38.6631905,-90.1992204
school_543967205,Wedgwood Elementary School,school,38.8101421,-90.3024639
school_543967207,Cross Keys Middle School,school,38.809129,-90.3047302
school_545485860,Dubray Middle School,school,38.7811938,-90.6217709
school_545749440,Marquette Catholic High School,school,38.8912434,-90.1830571
school_545749442,St. Mary's School - Alton,school,38.8908866,-90.1780395
school_545750056,St. Mary's Middle School - Alton,school,38.8924767,-90.1319897
school_545750631,Mark Twain Elementary School,school,38.890675,-90.1297108
school_545751662,East Elementary School,school,38.8950901,-90.1508374
school_548580764,St. John Bosco School,school,38.7069996,-90.4737473
school_554646164,Columbia Elementary School,school,38.653437,-90.2191048
school_558308160,Blewett Middle School,school,38.6440531,-90.2038524
school_558613104,Carr Lane VPA Middle School,school,38.6393248,-90.2117118
school_559642540,All Saints Catholic School,school,38.7973098,-90.6287493
school_560604207,Fort Zumwalt Early Childhood Center,school,38.8016705,-90.659532
school_570079684,Washington Montessori Elementary School,school,38.6566916,-90.2588727
school_583026740,North Glendale Elementary School,school,38.5951914,-90.3874887
school_585524562,Rogers Middle School,school,38.5731769,-90.3169312
school_585538420,Lutheran High School South,school,38.5466607,-90.3355816
school_591924051,Yeatman-Liddell Preparatory Middle School,school,38.6755926,-90.2285046
school_596614889,school_596614889,school,38.6543537,-90.1967991
school_598392004,school_598392004,school,38.6959799,-90.2457396
school_601685915,school_601685915,school,38.5125044,-90.2063797
school_615435974,Ashland Elementary School,school,38.6716823,-90.2358072
school_615435976,Hickey Elementary School,school,38.669385,-90.2455196
school_615623698,Gilkey Pamoja Preparatory Academy at Cole,school,38.6451725,-90.2380887
school_617097785,Rosati-Kain High School,school,38.6419559,-90.2534451
school_617727885,school_617727885,school,38.6567962,-90.3509472
school_617957762,school_617957762,school,38.6079465,-90.2233069
school_618053429,North County Christian School,school,38.7760672,-90.3241242
school_618084709,school_618084709,school,38.6046635,-90.2260352
school_618133893,Hodgen Elementary School,school,38.6163794,-90.2247421
school_618278943,Pierre Laclede Elementary School,school,38.6774349,-90.2766611
school_618376479,Missouri School for the Blind,school,38.6080951,-90.2447638
school_618701411,Educational Therapeutic Support at Madison School,school,38.6161824,-90.1956092
school_619013310,L'Ouverture Middle School,school,38.622793,-90.2275524
school_619101034,Confluence Academy South City Campus,school,38.5792859,-90.2403677
school_619362298,Hawthorn Leadership School for Girls,school,38.6660779,-90.2598949
school_619362309,North Side Community School,school,38.6723788,-90.2527003
school_619362337,Lexington Elementary School,school,38.6745476,-90.2548696
school_619909176,Mann Elementary School,school,38.6021606,-90.2545119
school_619917167,City Academy,school,38.6816431,-90.2491234
school_620478464,Soldan International Studies High School,school,38.6551704,-90.2724444
school_620772073,Hamilton Elementary School,school,38.653098,-90.289723
school_621381654,Dewey International Studies Elementary School,school,38.6306795,-90.3024742
school_621876245,Incarnate Word Academy,school,38.699252,-90.3118107
school_622104670,Lafayette Preparatory Academy,school,38.6135505,-90.2137784
school_624882222,Normandy High School,school,38.6832214,-90.2963336
school_625868618,Youth Learning Center,school,38.6482998,-90.2545506
school_627119803,Holy Trinity Catholic School,school,38.6604201,-90.1995831
school_627433286,Woerner Elementary School,school,38.5696102,-90.2690665
school_627464862,Long International Middle School,school,38.5799451,-90.2666053
school_628103885,Wilkinson Early Childhood Center at Roe,school,38.6218755,-90.3047402
school_628179794,Shaw Visual and Performing Arts Elementary School,school,38.6118008,-90.2770307
school_630520711,Buder Elementary School,school,38.5890406,-90.2831414
school_630933131,Mullanphy-Botanical Garden Investigative Learning Center,school,38.6170961,-90.2548285
school_631452509,Mason School of Academic & Cultural Literacy Elementary School,school,38.610766,-90.290114
school_632272509,Herzog Elementary School,school,38.7112321,-90.2516634
school_632298566,Nance Elementary School,school,38.721315,-90.2419776
school_632359921,school_632359921,school,38.5538621,-90.2995705
school_632359922,school_632359922,school,38.5511281,-90.3006206
school_632377022,Southview School,school,38.5432493,-90.3813749
school_632377025,Long Elementary School,school,38.5465676,-90.3812703
school_632377047,Gotsch Intermediate School,school,38.5615078,-90.339304
school_632377057,Mesnier Primary School,school,38.5552774,-90.3363245
school_632377075,Cor Jesu Academy,school,38.5461291,-90.3446659
school_632392314,Jefferson Elementary School,school,38.7105126,-90.2943488
school_632419243,school_632419243,school,38.7350854,-90.2329351
school_632419256,Lewis & Clark Elementary School,school,38.7572424,-90.242461
school_632419257,Central Middle School,school,38.7453174,-90.2380085
school_632419259,Gibson Elementary School,school,38.7489544,-90.2323852
school_632442243,Meadows Elementary School,school,38.7468657,-90.251145
school_632442251,Gary Gore Community Education Center,school,38.7358866,-90.2502138
school_632659456,Saint Mark Catholic School,school,38.534241,-90.3053737
school_632730299,Green Park Lutheran School,school,38.526806,-90.3143525
school_633120948,Wydown Middle School,school,38.6423766,-90.3123977
school_633150477,Edgar Road Elementary School,school,38.5722499,-90.3482834
school_633150489,Hixson Middle School,school,38.5792262,-90.3570583
school_633152267,Nerinx Hall,school,38.5897153,-90.3409514
school_633203406,Webster Groves High School,school,38.590206,-90.3483846
school_633203431,Avery Elementary School,school,38.6042831,-90.3442302
school_633513688,Bristol Elementary School,school,38.5922602,-90.3600359
school_633769146,Iveland Elementary School,school,38.6932226,-90.3829591
school_633780653,Washington Elementary School,school,38.684468,-90.3274166
school_633824003,Kenrick-Glennon Seminary,school,38.5846309,-90.3239389
school_633972416,Ursuline Academy,school,38.5769279,-90.3879167
school_633978299,Steger Sixth Grade Center,school,38.6053066,-90.3668997
school_633978300,Great Circle Academy,school,38.5997503,-90.3626785
school_634001768,Lindbergh High School,school,38.5308435,-90.3747274
school_634007240,Hudson Elementary School,school,38.6098866,-90.3734327
school_634040629,Crestwood Elementary School,school,38.5628646,-90.3827067
school_634320716,Fairview Elementary School,school,38.7130512,-90.2681434
school_634576299,school_634576299,school,38.525011,-90.2816541
school_635021851,Hancock Elementary School,school,38.5378635,-90.2725631
school_635157288,Pershing Elementary School,school,38.666254,-90.3098095
school_636428041,Jennings Senior High School,school,38.7267078,-90.2557525
school_636428045,Jennings Junior High School,school,38.7281495,-90.2581289
school_636428065,Northview Elementary School,school,38.7294907,-90.2516192
school_636712837,Glasgow Elementary School,school,38.7590774,-90.2066665
school_636724767,Gateway Science Academy,school,38.5722044,-90.2834407
school_637810472,school_637810472,school,38.6210039,-90.3541055
school_637982410,Ambrose Family Center,school,38.5916809,-90.361958
school_638018315,school_638018315,school,38.6795841,-90.285964
school_638035731,Early Explorers Childhood Development Academy,school,38.6680788,-90.3002232
school_638062210,Central Elementary School,school,38.673525,-90.2903671
school_638062218,school_638062218,school,38.6763321,-90.2893184
school_638451706,South County Technical School,school,38.5426959,-90.4149527
school_638593722,Clark Elementary School,school,38.574892,-90.3695644
school_638613925,Rohan Woods School,school,38.6057088,-90.3904924
school_638616833,F. P. Tillman Elementary School,school,38.5951058,-90.4020599
school_638623664,Nipher Middle School,school,38.5722582,-90.4048673
school_638675464,Kirkwood Early Childhood Center,school,38.5820758,-90.3858761
school_641016620,Asa Christian Academy,school,38.7653976,-90.3292901
school_641096021,Twillman Elementary School,school,38.7849868,-90.2186042
school_641096022,Trinity Catholic High School,school,38.7840187,-90.222607
school_641139251,Hazlewood Southeast Middle School,school,38.7781339,-90.1954743
school_641332358,Blades Elementary School,school,38.4827609,-90.3324109
school_641390390,Dressel Elementary School,school,38.5309506,-90.3479
school_642053238,Parker Road Elementary School,school,38.7949514,-90.3030916
school_662227897,KIPP Wisdom Academy,school,38.6168875,-90.208176
school_662261279,school_662261279,school,38.7600768,-90.6553061
school_663302908,school_663302908,school,38.7778155,-90.6765085
school_664045947,Shenandoah Valley Elementary School,school,38.6563877,-90.53845
school_664076952,Parkway West High School,school,38.6225046,-90.5350679
school_664227854,Highcroft Ridge Elementary School,school,38.6449084,-90.5497944
school_664254382,Parkway West Middle School,school,38.6234619,-90.5423136
school_664275103,Westminster Christian Academy,school,38.6376889,-90.5047084
school_664305453,Kehrs Mill Elementary School,school,38.6193158,-90.5762056
school_664305456,Marquette High School,school,38.6249538,-90.5857357
school_664318553,Villa Duchesne and Oak Hill School,school,38.6437313,-90.4179927
school_664490487,The Moog Center for Deaf Education,school,38.6365012,-90.4518617
school_664490511,Principia School,school,38.6322466,-90.4740475
school_664546508,The Wilson School,school,38.6416346,-90.3065877
school_664548185,Central Christian School,school,38.6414874,-90.3344425
school_664691557,Maplewood Richmond Heights Elementary School,school,38.6224698,-90.3146341
school_664759018,Lusher Elementary School,school,38.8166341,-90.3480114
school_664759021,Hazelwood Northwest Middle School,school,38.8189621,-90.3457047
school_664759028,McCurdy Elementary School,school,38.8066422,-90.342779
school_664774187,Lawson Elementary School,school,38.8053909,-90.35566
school_664774217,Walker Elementary School,school,38.8138745,-90.3367625
school_666020403,school_666020403,school,38.7784858,-90.2944198
school_666020404,school_666020404,school,38.7814829,-90.2962889
school_666020412,McCluer North High School,school,38.7899944,-90.3038473
school_666020413,school_666020413,school,38.7931513,-90.3026377
school_666213549,school_666213549,school,38.8036406,-90.2389285
school_666220777,Townsend Elementary School,school,38.7988229,-90.2374988
school_666224829,Hazlewood Central Middle School,school,38.8041944,-90.2530689
school_666224839,Jamestown Elementary School,school,38.8104513,-90.2534462
school_666848611,Kratz Elementary School,school,38.7318255,-90.3665003
school_666852782,Lafayette High School,school,38.5960853,-90.6357364
school_666852786,Babler Elementary School,school,38.5999242,-90.6422355
school_667011244,school_667011244,school,38.7903815,-90.6695992
school_667056571,Buder Elementary School,school,38.711107,-90.3854837
school_667085763,school_667085763,school,38.7111281,-90.3280457
school_667932193,Oakville High School,school,38.4724603,-90.3222195
school_677521620,Babler Elementary,school,38.5993112,-90.6418521
school_677521631,Rockwood Valley Middle School,school,38.6123574,-90.6628667
school_695870446,Fox Campus,school,38.449813,-90.3723014
school_695870451,Fox Middle School,school,38.4504022,-90.3696553
school_695870452,Fox Elementary School,school,38.4507047,-90.3687573
school_696269993,school_696269993,school,38.6219228,-90.5317429
school_696569421,Mallinckrodt Academy of Gifted Instruction,school,38.5959772,-90.2937068
school_697862912,Loyola Academy of Saint Louis,school,38.6419999,-90.2366765
school_698800534,Queen of the Holy Rosary,school,38.563149,-90.3681796
school_698972286,school_698972286,school,38.6586518,-90.5861148
school_698995469,Craig Elementary School,school,38.6840612,-90.4411733
school_699006789,Willow Brook Elementary School,school,38.6838156,-90.4099147
school_699022710,Combs Elementary School,school,38.7919697,-90.3298543
school_699477095,Bridgeway Elementary School,school,38.7379095,-90.4199768
school_699542775,Larimore Elementary School,school,38.7898616,-90.1978634
school_699552831,Arrowpoint Elementary School,school,38.8128243,-90.226697
school_771173347,school_771173347,school,38.5833732,-90.4930953
school_772836253,Old State Elementary School,school,38.571781,-90.6014834
school_802117700,Sumner High School,school,38.6594882,-90.2388702
school_807949300,Lee Hamilton Elementary School,school,38.7571666,-90.3019363
school_829538157,Parkway North High School,school,38.6897655,-90.4698719
school_842227246,Crossroads College Preparatory School,school,38.6522078,-90.2840525
school_842474933,George Washington Carver Elementary Academy,school,38.6419958,-90.2258344
school_844072071,Hagemann Elementary School,school,38.4696249,-90.398861
school_844078041,Oakville Middle School,school,38.4598324,-90.3037498
school_853524976,Sherwood Elementary School,school,38.4409143,-90.3997131
school_917645757,Green Pines Elementary School Nature Trail,school,38.5920159,-90.6270188
school_970707255,McKelvey Primary School,school,38.6942107,-90.4633459
school_972642340,school_972642340,school,38.6267396,-90.1487383
school_993318732,Wildwood Middle School,school,38.5836193,-90.6610671
school_993342476,Missouri Torah Institute,school,38.6401428,-90.570871
school_993357612,Parkway Central High School,school,38.6648759,-90.5048058
school_993357613,Parkway Central Middle School,school,38.6683507,-90.5045418
school_993357637,Chesterfield Montessori School,school,38.6604049,-90.508164
school_993357643,The Fulton School,school,38.6540928,-90.5214064
school_993360946,Kirk Day School,school,38.6548076,-90.4831239
school_993360947,Whitfield School,school,38.6540339,-90.4819591
school_993364522,Saint Louis Priory School,school,38.6445872,-90.4755193
school_993364535,Rossman School,school,38.6453525,-90.4646643
school_993375354,Oak Brook Elementary School,school,38.5654533,-90.5393743
school_993384139,Sorrento Springs Elementary School,school,38.5745265,-90.5316899
school_993388339,Parkway South High School,school,38.576441,-90.5153229
school_993388341,Southwest Middle School,school,38.5776356,-90.5177642
school_993388342,Wren Hollow Elementary School,school,38.5776305,-90.5224254
school_993524737,Westchester Elementary School,school,38.6046933,-90.4232468
school_993722900,Parkway South Middle School,school,38.6098537,-90.5078357
school_993722936,Pierremont Elementary School,school,38.6040076,-90.4999861
school_993804670,Armstrong Elementary School,school,38.7844326,-90.3804619
school_993804671,Hazelwood West High School,school,38.7875093,-90.3843854
school_993804705,McNair Elementary School,school,38.7914153,-90.3585246
school_994830836,Ladue Middle School,school,38.6420243,-90.3864599
school_994830839,Conway Elementary School,school,38.6398667,-90.392713
school_995018706,McGrath Elementary School,school,38.6186543,-90.3543918
school_995037240,Mark Twain Elementary School,school,38.6166097,-90.344049
school_996451714,Marvin Elementary School,school,38.7167054,-90.3586992
school_996451717,School for Early Childhood Education,school,38.7186442,-90.3586122
school_997991988,KIPP Wonder Academy Elementary School,school,38.5856681,-90.2202191
school_998262615,Marian Middle School,school,38.5998542,-90.2570176
school_998595866,school_998595866,school,38.6188687,-90.2377666
school_1003764251,LaSalle Springs Middle School,school,38.5526007,-90.6379128
school_1012184497,Saint Charles High School,school,38.7913506,-90.4898097
school_1018610087,Rockport Heights Elementary School,school,38.4071296,-90.3812387
school_1057947351,Orchard Farm School District,school,38.9032629,-90.4482798
school_1057956535,school_1057956535,school,38.829984,-90.4770416
school_1059553032,school_1059553032,school,38.5590423,-90.1673492
school_1059590626,school_1059590626,school,38.6261353,-90.1402607
school_1059591172,school_1059591172,school,38.6184173,-90.1552289
school_1070399174,Andrews Academy,school,38.6713105,-90.4692317
school_1070399175,Hope Montessori,school,38.6716116,-90.468304
school_1098450109,Barretts Elementary School,school,38.5759697,-90.4719834
school_1137160846,Ridgewood Middle School,school,38.4568722,-90.4209352
school_1137983143,Lone Dell Elementary School,school,38.4325877,-90.416469
school_1138128388,school_1138128388,school,38.5645692,-90.1634837
school_1157465394,Woodridge Middle School,school,38.4818429,-90.5127545
school_1174575034,Green Trails Elementary School,school,38.6688229,-90.5266564
school_1176483199,school_1176483199,school,38.6783534,-90.3938971
school_1176483200,Miriam Academy,school,38.6803783,-90.3934374
school_1191327603,H.F. Epstein Hebrew Academy,school,38.6689538,-90.3590899
school_1191946157,Community School,school,38.6453084,-90.3631178
school_1192458733,school_1192458733,school,38.611925,-90.3268193
school_1192515257,school_1192515257,school,38.6801,-90.4579262
school_1192534952,Agape Academy,school,38.6705828,-90.3298868
school_1192692613,Bellerive Elementary School,school,38.6701036,-90.4765962
school_1192726727,Reed Elementary School,school,38.6527246,-90.3639598
school_1201524441,Gateway High School,school,38.6211049,-90.2696662
school_1202866630,school_1202866630,school,38.6715071,-90.4284466
school_1204460234,Bel-Nor School,school,38.7091192,-90.3199881
school_1205661209,River Bend Elementary School,school,38.6831693,-90.5052177
school_1206675428,Ritenour High School North Athletic Campus,school,38.7104129,-90.3476392
school_1207018496,Marion Elementary School,school,38.7064235,-90.3759314
school_1280890258,Queen of All Saints,school,38.4431155,-90.30754
school_1280917239,school_1280917239,school,38.5594943,-90.3590986
school_1280917240,school_1280917240,school,38.5593611,-90.3596168
school_1307064513,St Justin Martyr Catholic School,school,38.5441295,-90.3914489
school_1307125675,school_1307125675,school,38.5461922,-90.3980619
school_1308851539,Esports Center,school,38.5617984,-90.4110782
school_1324477141,KIPP Inspire Academy,school,38.6405147,-90.207879
school_1343267541,Maplewood Elementary School,school,38.572302,-90.1744064
school_1346059988,Collegiate School of Medicine and Bioscience,school,38.6529966,-90.293298
school_1357548554,school_1357548554,school,38.6310857,-90.2008109
school_1358385094,school_1358385094,school,38.6316513,-90.2217769
school_1359387667,school_1359387667,school,38.6311913,-90.2067641
school_1361739656,KIPP Victory Academy,school,38.6599619,-90.2805886
school_1376230107,Hanna Woods Elementary,school,38.5791227,-90.5087743
school_1417564732,Head Start - North Spring Center,school,38.6433363,-90.234171
school_1423597229,St. Louis Catholic Academy,school,38.6401866,-90.211909
school_1425926107,school_1425926107,school,38.6356179,-90.2124458
school_1428152811,Gateway Science Academy High,school,38.6010131,-90.2765409
school_1432620217,Mary Queen of Peace,school,38.5838998,-90.3762236
school_1443293527,City Garden Montessori School,school,38.6214387,-90.2531392
school_1445450331,Rose Acres Elementary School,school,38.7375035,-90.4558001
school_1445655787,Francis Howell Middle School,school,38.7197245,-90.6773406
school_1447151743,Farragut School,school,38.6625956,-90.2276468
school_1460881113,school_1460881113,school,38.4322891,-90.4172544
school_1462219263,Outdoor Classroom,school,38.8694851,-90.1823056
community_centre_368064064,Madison Memorial Center,community_centre,38.6833647,-90.1532092
community_centre_1050558995,Rec-Plex,community_centre,38.7920404,-90.5929833
community_centre_4712780008,Family Forward,community_centre,38.5990521,-90.2708058
community_centre_5167711521,Excel Center,community_centre,38.6506624,-90.197556
community_centre_6139746022,Leslie Bates Davis Neighborhood House,community_centre,38.6100291,-90.1563779
community_centre_10005607963,Jackie Joyner Kersee Community Center,community_centre,38.6248329,-90.1245175
community_centre_10233763069,Brentwood Community Center,community_centre,38.6160238,-90.349916
community_centre_12300659079,Roy Wilde Conference Center,community_centre,38.448243,-90.3724526
community_centre_201971915,Fathers & Families Support Center,community_centre,38.6312075,-90.2033562
community_centre_257725151,Memorial Hall,community_centre,38.7990925,-90.4846349
community_centre_271637809,The Youth and Family Center,community_centre,38.6398452,-90.1892025
community_centre_272694358,Richmond Heights Community Center,community_centre,38.6286726,-90.3312435
community_centre_363398852,James J Eagan Center,community_centre,38.7944138,-90.2984743
community_centre_374856422,VFW Hall,community_centre,38.606138,-90.3206994
community_centre_387968911,Kirkwood Community Center,community_centre,38.5804953,-90.4164713
community_centre_404983686,Eureka Community Center,community_centre,38.5000362,-90.632543
community_centre_406910435,Chesterfield Family YMCA,community_centre,38.6553423,-90.5720122
community_centre_461992838,Edward Jones Family YMCA,community_centre,38.7041537,-90.4590082
community_centre_508817937,Sugarloaf Township Office,community_centre,38.515413,-90.2071954
community_centre_508831938,East Carondelet Community Center,community_centre,38.540481,-90.2319328
community_centre_546688690,Countrylane Woods II Clubhouse,community_centre,38.573623,-90.4831808
community_centre_548462105,Rush City Community Center,community_centre,38.6092438,-90.1694681
community_centre_549412001,Maryland Heights Community Center,community_centre,38.7225314,-90.4465913
community_centre_550734670,Skinker DeBaliviere Community Council,community_centre,38.6519557,-90.2945377
community_centre_559988095,Mayor Tom Brown Senior Center,community_centre,38.7948157,-90.626917
community_centre_567193803,community_centre_567193803,community_centre,38.6414648,-90.2243744
community_centre_570019470,community_centre_570019470,community_centre,38.6929825,-90.2382521
community_centre_572847488,YMCA,community_centre,38.5732048,-90.6460387
community_centre_585524559,Affton Elk's Lodge,community_centre,38.5652915,-90.3225729
community_centre_586449894,Parson's Place Community Center,community_centre,38.6279443,-90.1324212
community_centre_615665538,John F Kennedy Civic Center,community_centre,38.8077198,-90.361745
community_centre_618411329,Rita Ford Community Center,community_centre,38.5942122,-90.2302772
community_centre_619591569,"Hogan Street Regional Youth Center, State of MO",community_centre,38.6465995,-90.2006496
community_centre_620261600,The Hub,community_centre,38.6590825,-90.2225467
community_centre_621374555,Better Family Life,community_centre,38.6629032,-90.2745298
community_centre_627473791,City Sewing Room,community_centre,38.6082447,-90.3034236
community_centre_633930933,Frank Munsch Community Center,community_centre,38.7007373,-90.3598717
community_centre_634040569,Crestwood Community Center,community_centre,38.5550468,-90.36677
community_centre_769792426,The Salvation Army (Alton),community_centre,38.8930321,-90.1835857
community_centre_837374922,House of Miles East St. Louis (HOME),community_centre,38.6136907,-90.1454435
community_centre_842861316,Gamble Community Center,community_centre,38.6414888,-90.217931
community_centre_1177429554,St. Louis Bridge Center,community_centre,38.6806571,-90.3674181
community_centre_1193572744,community_centre_1193572744,community_centre,38.6248663,-90.1249862
community_centre_1283811324,community_centre_1283811324,community_centre,38.5445019,-90.4037809
community_centre_1329996432,Moose Family Center,community_centre,38.7064549,-90.3616059
community_centre_1337429486,community_centre_1337429486,community_centre,38.7499385,-90.5804419
community_centre_1344831389,Hillel at Washington University in St. Louis,community_centre,38.6458862,-90.3037401
community_centre_1433938318,community_centre_1433938318,community_centre,38.6285052,-90.3312668
place_of_worship_354221508,First Methodist Church,place_of_worship,38.6811613,-90.1528869
place_of_worship_354221512,First Presbyterian Church,place_of_worship,38.6794946,-90.1539981
place_of_worship_354231291,Victory Worship Center,place_of_worship,38.7080344,-90.1604953
place_of_worship_354231309,West Twentysecond Street Baptist Church,place_of_worship,38.7092167,-90.164276
place_of_worship_354231349,Saint Marks Roman Catholic Church,place_of_worship,38.6724026,-90.1680905
place_of_worship_354231358,Second Baptist Church,place_of_worship,38.7082228,-90.1550983
place_of_worship_354231395,United Pentecostal Church,place_of_worship,38.7094944,-90.1578868
place_of_worship_354231660,Saint Marys Greek Catholic Church,place_of_worship,38.6906057,-90.1537202
place_of_worship_354231776,Apostolic Christian Church,place_of_worship,38.6911612,-90.1534423
place_of_worship_354231779,Apostolic Pentecostal Church,place_of_worship,38.6917168,-90.1534423
place_of_worship_354231783,Armenian Apostolic Church,place_of_worship,38.7025501,-90.1639982
place_of_worship_354231786,Lincoln Place Community Mission,place_of_worship,38.7011612,-90.1667761
place_of_worship_354231813,Bethel Chapel Pentecostal Church,place_of_worship,38.7137787,-90.159362
place_of_worship_354231907,Friendship Baptist Church,place_of_worship,38.6817044,-90.1660828
place_of_worship_354231917,First Methodist Church,place_of_worship,38.6715637,-90.171906
place_of_worship_354232271,First Baptist Church,place_of_worship,38.6811613,-90.1520535
place_of_worship_354232295,Church of Christ,place_of_worship,38.6807138,-90.1662329
place_of_worship_354232302,Bulgarian Orthodox Church,place_of_worship,38.6906058,-90.1562202
place_of_worship_354232316,Dewey Avenue United Methodist Church,place_of_worship,38.7094944,-90.1564979
place_of_worship_354259934,Saint Paul Baptist Church,place_of_worship,38.6113202,-90.1548313
place_of_worship_354260000,Truelight Baptist Church,place_of_worship,38.6084505,-90.1567081
place_of_worship_354260011,Pilgrim Baptist Church,place_of_worship,38.6049722,-90.1584553
place_of_worship_354260039,Pilgrim Temple Christian Methodist Episcopal Church,place_of_worship,38.6067176,-90.1523319
place_of_worship_354260061,Macedonia Baptist Church,place_of_worship,38.6164397,-90.1512207
place_of_worship_354260252,Friendship Missionary Baptist Church,place_of_worship,38.6070413,-90.1556471
place_of_worship_354260400,Market Avenue Church of God,place_of_worship,38.6110227,-90.1551547
place_of_worship_354260405,Holy Olivette Missionary Baptist Church,place_of_worship,38.6087061,-90.1500669
place_of_worship_354260501,Rising Star Missionary Baptist Church,place_of_worship,38.6093604,-90.160876
place_of_worship_358067828,Jennings Church,place_of_worship,38.7081065,-90.2667795
place_of_worship_358068300,Mount Zion Church,place_of_worship,38.733662,-90.3234477
place_of_worship_358068786,Saint Jacobi Church,place_of_worship,38.7206063,-90.2570568
place_of_worship_358068817,Saint Joseph Convent,place_of_worship,38.7291207,-90.3042594
place_of_worship_358069958,Saint Catherine of Sienna Church,place_of_worship,38.6758847,-90.3101145
place_of_worship_358083593,Mount Auburn Church,place_of_worship,38.6781069,-90.2831692
place_of_worship_358083722,Wesley Church,place_of_worship,38.7064398,-90.2567792
place_of_worship_358083782,Saint Edward Church,place_of_worship,38.6761623,-90.27178
place_of_worship_358083788,Saint Adalbert Church,place_of_worship,38.6967177,-90.2576126
place_of_worship_358083789,Saint James Church,place_of_worship,38.6256074,-90.2937255
place_of_worship_358083820,Holy Cross Church,place_of_worship,38.7106062,-90.2326117
place_of_worship_358083827,Nativity of Our Lord Church,place_of_worship,38.7042176,-90.2498345
place_of_worship_358083839,Church of the Holy Communion,place_of_worship,38.6361623,-90.2178896
place_of_worship_358083865,Saint Stanislaus Church,place_of_worship,38.6420083,-90.2059937
place_of_worship_358083873,Church of the Holy Innocents,place_of_worship,38.5932103,-90.262588
place_of_worship_358083897,Saint Augustines Church,place_of_worship,38.6183853,-90.3103928
place_of_worship_358083912,B'nai El,place_of_worship,38.6113348,-90.2429015
place_of_worship_358083923,Franciscan Monastary of Saint Anthony of Padua,place_of_worship,38.5797103,-90.2395856
place_of_worship_358083970,Saint Thomas of Aquin Church,place_of_worship,38.5833851,-90.2312238
place_of_worship_358083978,Olive Branch Church,place_of_worship,38.6044959,-90.2201121
place_of_worship_358084754,Affton Grace Bible Church,place_of_worship,38.5749379,-90.2759259
place_of_worship_358084755,Affton Presbyterian Church,place_of_worship,38.5549,-90.316
place_of_worship_358084758,Agape Seventh Day Adventist Church,place_of_worship,38.6647301,-90.3025167
place_of_worship_358084782,Bayless Baptist Church,place_of_worship,38.5513818,-90.290233
place_of_worship_358084785,Believers Chapel of Saint Louis,place_of_worship,38.6114,-90.2264
place_of_worship_358084788,Berea Lutheran Church,place_of_worship,38.7467,-90.2108
place_of_worship_358084795,Bermuda Bible Hall,place_of_worship,38.7264,-90.2933
place_of_worship_358084806,Bethesda Evangelical Church,place_of_worship,38.53,-90.2932
place_of_worship_358084807,Bethesda Lutheran Church,place_of_worship,38.6968,-90.2744
place_of_worship_358084809,Bethesda Temple Church,place_of_worship,38.7185468,-90.2984224
place_of_worship_358084817,Bible Way Baptist Church,place_of_worship,38.6713733,-90.3386893
place_of_worship_358084820,Blaine Avenue Church of God,place_of_worship,38.6202,-90.2529
place_of_worship_358084824,Blessed John XXIII Center,place_of_worship,38.5546,-90.2876
place_of_worship_358084829,Bracy Chapel Christian Methodist Episcopal Church;Bracy Chapel,place_of_worship,38.6602249,-90.3035254
place_of_worship_358084830,Brentwood Bible Church,place_of_worship,38.6234,-90.3486
place_of_worship_358084831,Brentwood Congregational Christ Church,place_of_worship,38.6174,-90.3482
place_of_worship_358084832,Brotherly Love Christian Assembly,place_of_worship,38.7217,-90.2697
place_of_worship_358084837,Calvary West Missionary Baptist Church,place_of_worship,38.7143,-90.2597
place_of_worship_358084861,Cathedral of Praise Christian Development Center,place_of_worship,38.6882,-90.3288
place_of_worship_358084870,Chapel of Praise Church,place_of_worship,38.681777,-90.2401099
place_of_worship_358084880,Christ Community United Methodist Church,place_of_worship,38.7341778,-90.2607313
place_of_worship_358084883,Christ Love Divine Missionary Baptist Church,place_of_worship,38.7287,-90.2916
place_of_worship_358084885,Christ Memorial Baptist Church,place_of_worship,38.7233602,-90.3098019
place_of_worship_358084887,Christ Memorial Lutheran Church,place_of_worship,38.5434219,-90.3324746
place_of_worship_358084888,Christ Pilgrim Rest Missionary Baptist Church,place_of_worship,38.6609,-90.262
place_of_worship_358084896,Christian Faith Center,place_of_worship,38.7492,-90.2616
place_of_worship_358084897,Christian Faith House Church,place_of_worship,38.582,-90.2274
place_of_worship_358084901,Christian Fellowship Baptist Church,place_of_worship,38.6722,-90.3095
place_of_worship_358084905,Christy Memorial United Methodist Church,place_of_worship,38.5848515,-90.2663425
place_of_worship_358084921,Church of God at Baden,place_of_worship,38.7143857,-90.2302414
place_of_worship_358084930,Church of the Living God Temple Number 1,place_of_worship,38.7254,-90.3037
place_of_worship_358084975,Clarendon Holy Baptist Church,place_of_worship,38.6537,-90.2702
place_of_worship_358084996,Coleman Wright Christian Methodist Episcopal Church,place_of_worship,38.7394,-90.2509
place_of_worship_358085002,Communion Church Ministry,place_of_worship,38.7287,-90.3017
place_of_worship_358085043,Cordero de Dios Lutheran Church,place_of_worship,38.5844,-90.2449
place_of_worship_358085052,Cornerstone Fellowship Church,place_of_worship,38.5963,-90.2267
place_of_worship_358085087,Divine Science Federation International,place_of_worship,38.5674,-90.3423
place_of_worship_358085114,Ebenezer Baptist Church,place_of_worship,38.6729,-90.29
place_of_worship_358085119,Ecclesia of Christ Church,place_of_worship,38.7048,-90.2634
place_of_worship_358085124,Eden Theological Seminary,place_of_worship,38.5914,-90.3446
place_of_worship_358085127,El Bethel Baptist Church,place_of_worship,38.5521,-90.3309
place_of_worship_358085136,Saint Timothys Catholic Church,place_of_worship,38.5472,-90.295
place_of_worship_358085157,Salem Lutheran Church,place_of_worship,38.5585,-90.3035
place_of_worship_358085177,Samuel United Church of Christ,place_of_worship,38.6563434,-90.3435807
place_of_worship_358085186,Seven Holy Founders Church,place_of_worship,38.5528,-90.3337
place_of_worship_358085189,Saint Louis Southside Seventh-Day Adventist Church,place_of_worship,38.5301539,-90.3074209
place_of_worship_358085198,Sisters of Loretto Church,place_of_worship,38.590372,-90.339493
place_of_worship_358085200,Solid Rock Church,place_of_worship,38.6851,-90.2876
place_of_worship_358085209,South Side Free Will Baptist Church,place_of_worship,38.5731,-90.2398
place_of_worship_358085210,Friendship Assembly of God,place_of_worship,38.5384979,-90.2807012
place_of_worship_358085213,Southern Mission Missionary Baptist Church,place_of_worship,38.7438,-90.3224
place_of_worship_358085218,Southwest Baptist Church,place_of_worship,38.6054555,-90.297031
place_of_worship_358085219,Southwest Church of the Nazarene,place_of_worship,38.6096,-90.2648
place_of_worship_358085223,Stephan Memorial United Methodist Church,place_of_worship,38.7051,-90.343
place_of_worship_358085228,Tabernacle of Faith and Deliverance,place_of_worship,38.7494931,-90.3322318
place_of_worship_358085233,Temple of God,place_of_worship,38.650255,-90.224244
place_of_worship_358085235,The Church of Jesus Christ of Latter-day Saints,place_of_worship,38.7081,-90.2506
place_of_worship_358085249,Third Episcopal District Christian Methodist Episcopal Church,place_of_worship,38.7073457,-90.2496607
place_of_worship_358085276,Total Praise and Worship Center,place_of_worship,38.6919,-90.2786
place_of_worship_358085308,Trinity United Church of Christ,place_of_worship,38.5745,-90.249
place_of_worship_358085314,True Love Missionary Baptist Church,place_of_worship,38.6697,-90.2198
place_of_worship_358085315,True Vine Baptist Church,place_of_worship,38.7281,-90.3116
place_of_worship_358085316,Twin Rivers Church,place_of_worship,38.5326598,-90.341421
place_of_worship_358085318,Tyler Redeeming Christian Spiritualist Church,place_of_worship,38.652,-90.2698
place_of_worship_358085334,Unity Church of Peace,place_of_worship,38.5416,-90.281
place_of_worship_358085346,Unity Lutheran Church of Bel-Nor,place_of_worship,38.7084,-90.319
place_of_worship_358085360,University City Bible Chapel,place_of_worship,38.6746,-90.336
place_of_worship_358085379,Watson Terrace Christian Church,place_of_worship,38.5942141,-90.3017826
place_of_worship_358085388,Wellston Church of the Nazarene,place_of_worship,38.6793,-90.285
place_of_worship_358085404,Word Christian Fellowship Church,place_of_worship,38.7476,-90.2537
place_of_worship_358085405,Word of Faith Foursquare Church,place_of_worship,38.7169,-90.2607
place_of_worship_358085417,Zion Travelers Missionary Baptist Church,place_of_worship,38.7482,-90.2098
place_of_worship_358085422,Emanuelle Christian Church,place_of_worship,38.668,-90.2725
place_of_worship_358085426,Emmaus Bible Chapel,place_of_worship,38.7432,-90.2929
place_of_worship_358085427,Emmaus Tabernacle Church,place_of_worship,38.6836067,-90.2725323
place_of_worship_358085484,Faith and Des Peres Presbyterian Church,place_of_worship,38.7096,-90.2735
place_of_worship_358085492,Faith Baptist Church,place_of_worship,38.7484,-90.3357
place_of_worship_358085498,Faith Temple Pentecostal Church,place_of_worship,38.6461297,-90.2252956
place_of_worship_358085500,Family of God Missionary Baptist Church,place_of_worship,38.7108,-90.229
place_of_worship_358085503,Ferguson United Methodist Church,place_of_worship,38.743105,-90.3041967
place_of_worship_358085513,First Baptist Church of Northwoods,place_of_worship,38.71,-90.3205
place_of_worship_358085531,First Divine Science Church,place_of_worship,38.5994587,-90.243581
place_of_worship_358085533,First Presbyterian Church of Ferguson,place_of_worship,38.747,-90.3011
place_of_worship_358085537,First Ship of Zion Non-Denominational Church,place_of_worship,38.7025314,-90.249359
place_of_worship_358085539,First United Methodist Church of Webster Groves,place_of_worship,38.7025,-90.2493
place_of_worship_358085543,Fourth Free Will Baptist Church,place_of_worship,38.6178,-90.3068
place_of_worship_358085552,Fundamental Church of God,place_of_worship,38.5916,-90.2328
place_of_worship_358085555,Gardenville Community Church,place_of_worship,38.5748939,-90.2760063
place_of_worship_358085560,Glad Tiding Word Fellowship Missionary Baptist Church,place_of_worship,38.6458,-90.2365
place_of_worship_358085566,Gods Way Pentecostal Church,place_of_worship,38.678,-90.2831
place_of_worship_358085578,Gospel Power Christian Church,place_of_worship,38.5931,-90.2891
place_of_worship_358085584,Gospel Truth Church of God in Christ,place_of_worship,38.706,-90.2503
place_of_worship_358085588,Grace Church of God in Christ,place_of_worship,38.6791482,-90.2850732
place_of_worship_358085605,Greater Fellowship Church,place_of_worship,38.6998,-90.2595
place_of_worship_358085607,Agape Christian Center,place_of_worship,38.7491761,-90.2436401
place_of_worship_358085615,Greater Pentecostal Church,place_of_worship,38.7104,-90.253
place_of_worship_358085621,Greater Saint Paul Missionary Baptist Church,place_of_worship,38.7031,-90.2489
place_of_worship_358085622,Greater True Vine Spiritual Church,place_of_worship,38.6485,-90.2551
place_of_worship_358085635,Higher Heights Christian Church,place_of_worship,38.575701,-90.2485838
place_of_worship_358085658,Holy Trinity Church of Christ,place_of_worship,38.6855,-90.2885
place_of_worship_358085664,Hope Church,place_of_worship,38.7257678,-90.3457076
place_of_worship_358085694,House of Deliverance Pentecostal Church,place_of_worship,38.7237054,-90.3409579
place_of_worship_358085703,Immanuel Congregational Church (Former),place_of_worship,38.6009,-90.3078
place_of_worship_358085705,Immanuel United Church of Christ,place_of_worship,38.7453,-90.3024
place_of_worship_358085712,Jewel Baptist Church,place_of_worship,38.5727,-90.2387
place_of_worship_358085719,Kinloch Church of God,place_of_worship,38.7438,-90.3194
place_of_worship_358085732,Lambs Bride Church,place_of_worship,38.625,-90.2562
place_of_worship_358085757,Lighthouse Free Methodist Church,place_of_worship,38.6259,-90.2565
place_of_worship_358085765,Lively Hope Church of God,place_of_worship,38.7145,-90.2571
place_of_worship_358085767,Living Word Apostolic Church,place_of_worship,38.7098,-90.298
place_of_worship_358085769,Living Word Church,place_of_worship,38.5617323,-90.3073359
place_of_worship_358085777,Maple Temple Church,place_of_worship,38.659652,-90.243425
place_of_worship_358085782,Maplewood Congregational Church,place_of_worship,38.6251,-90.3074
place_of_worship_358085784,Maplewood Pentecostal Church of God,place_of_worship,38.6188,-90.3114
place_of_worship_358085791,Maranatha Baptist Church,place_of_worship,38.733,-90.2388
place_of_worship_358085797,Mellow Memorial United Methodist Church,place_of_worship,38.5563,-90.2545
place_of_worship_358085817,Metropolitan Missionary Baptist Church,place_of_worship,38.7409,-90.3257
place_of_worship_358085822,Miracle Temple Church of God and Christ,place_of_worship,38.6941784,-90.2751338
place_of_worship_358085825,Missouri District Church of the Nazarene,place_of_worship,38.5957,-90.3328
place_of_worship_358085840,Mount Bethel Missionary Baptist Church,place_of_worship,38.6688316,-90.2727946
place_of_worship_358085850,Mount Chapel Missionary Baptist Church,place_of_worship,38.662,-90.2319
place_of_worship_358085869,Mount Tabor United Church of Christ,place_of_worship,38.608,-90.2995
place_of_worship_358085894,New Covenant Full Gospel Church,place_of_worship,38.5512,-90.2603
place_of_worship_358085900,New Emmanuel Missionary Baptist Church,place_of_worship,38.6734,-90.2917
place_of_worship_358085906,New Good Hope Baptist Church,place_of_worship,38.7005,-90.2708
place_of_worship_358085927,New Horizon Seventh Day Christian Church,place_of_worship,38.7234,-90.3097
place_of_worship_358085932,New Jersusalem Missionary Baptist Church II,place_of_worship,38.716416,-90.236014
place_of_worship_358085935,New Jerusalem Church of God,place_of_worship,38.6831,-90.3334
place_of_worship_358085941,New Journey Baptist Church,place_of_worship,38.5739186,-90.243371
place_of_worship_358085957,New Mount Zion Church of God in Christ,place_of_worship,38.7174,-90.2457
place_of_worship_358085975,New Rock Missionary Baptist Church,place_of_worship,38.6600241,-90.2527362
place_of_worship_358085995,New Sunnymount Missionary Baptist Church,place_of_worship,38.6870298,-90.2330759
place_of_worship_358086015,Normandy United Methodist Church,place_of_worship,38.7067,-90.3113
place_of_worship_358086046,Northside Seventh Day Adventist Church Complex,place_of_worship,38.7309,-90.2663
place_of_worship_358086084,Old Orchard Presbyterian Church,place_of_worship,38.596707,-90.3381166
place_of_worship_358086090,Our Lady of Holy Cross Catholic Church,place_of_worship,38.7104,-90.2321
place_of_worship_358086113,Peoples Community Christian Church,place_of_worship,38.7356,-90.2457
place_of_worship_358086114,Perfect Peace Baptist Church,place_of_worship,38.6743,-90.279
place_of_worship_358086119,Pleasant Grove Baptist Church,place_of_worship,38.6571628,-90.235443
place_of_worship_358086123,Praise Tabernacle,place_of_worship,38.7264,-90.2591
place_of_worship_358086136,Pure Gospel Temple,place_of_worship,38.6927,-90.279
place_of_worship_358086141,Redemption Center Church of God in Christ,place_of_worship,38.7201,-90.2662
place_of_worship_358086148,Restoration Temple Church of God in Christ,place_of_worship,38.7489,-90.2616
place_of_worship_358086152,Richmond Heights Presbyterian Church,place_of_worship,38.6263442,-90.3184747
place_of_worship_358086155,Riverview Gardens Baptist Church,place_of_worship,38.7492378,-90.2062198
place_of_worship_358086160,Rose Hill Baptist Church,place_of_worship,38.7066,-90.2562
place_of_worship_358086162,Saint Agatha Church,place_of_worship,38.5939614,-90.2147224
place_of_worship_358086163,Saint Agatha Convent,place_of_worship,38.5943877,-90.2145321
place_of_worship_358086204,Saint Ann of Normandy Catholic Church,place_of_worship,38.7048,-90.2995
place_of_worship_358086230,Saint Basil the Great Orthodox Church,place_of_worship,38.602148,-90.3130485
place_of_worship_358086237,Saint Douglas Primitive Bapist Church,place_of_worship,38.7079265,-90.2500598
place_of_worship_358086250,Saint James Missionary Baptist Church,place_of_worship,38.6688,-90.2714
place_of_worship_358086261,Saint Johns Temple,place_of_worship,38.6872,-90.2379
place_of_worship_358086286,Saint Louis Harvest Church of God,place_of_worship,38.6084115,-90.2106029
place_of_worship_358086317,Saint Mark Catholic Church,place_of_worship,38.5546,-90.2876
place_of_worship_358086358,Saint Stephen United Church of Christ,place_of_worship,38.7155,-90.2337
place_of_worship_358086359,Saint Stephens Episcopal Church,place_of_worship,38.7458,-90.3009
place_of_worship_553190131,Shinzo Zen Meditation Center,place_of_worship,38.6596636,-90.3034279
place_of_worship_2029289887,Grace New Covenant Church,place_of_worship,38.7494422,-90.217425
place_of_worship_2782208079,Our Lady of Czestochowa St. Mary's Church,place_of_worship,38.686255,-90.1527391
place_of_worship_3238285940,Saint Mark Family Church,place_of_worship,38.7489301,-90.268968
place_of_worship_3255349747,Nazareth Temple Church of God in Christ,place_of_worship,38.7120229,-90.3477433
place_of_worship_3504224354,Grace New Covenant Church,place_of_worship,38.7491424,-90.2268927
place_of_worship_3504233607,Knights of Columbus - Council #1215,place_of_worship,38.7488414,-90.2210308
place_of_worship_3782045087,New City Fellowship,place_of_worship,38.6804311,-90.3493289
place_of_worship_3897866410,Bosnian Islamic Center Masjid,place_of_worship,38.541756,-90.2769481
place_of_worship_3897911460,Islamic Community Center,place_of_worship,38.5871022,-90.2735235
place_of_worship_3897929765,Masjid Bilal,place_of_worship,38.6377931,-90.2404455
place_of_worship_3897996354,West Florissant Masjid,place_of_worship,38.7167718,-90.2597485
place_of_worship_3897997292,Umar Masjid,place_of_worship,38.6925178,-90.2413434
place_of_worship_3898013892,Grand Islamic Center,place_of_worship,38.5953159,-90.2439415
place_of_worship_3898024247,Hazrat Abu Bakr Masjid,place_of_worship,38.5742864,-90.2492011
place_of_worship_3940268971,Chabad on Campus,place_of_worship,38.6472523,-90.316722
place_of_worship_6138398306,Shining Light Missionary Baptist Church,place_of_worship,38.610357,-90.163264
place_of_worship_6139713147,Greater Liberty Church of God in Christ,place_of_worship,38.6009035,-90.1570788
place_of_worship_6139725001,Mount Paran Missionary Baptist Church,place_of_worship,38.6060001,-90.1589094
place_of_worship_6139729368,New Jerusalem Baptist Church,place_of_worship,38.6008958,-90.1557366
place_of_worship_6139729369,Christ Is the Rock Missionary Baptist Church,place_of_worship,38.6008772,-90.1550974
place_of_worship_6139729371,Shiloh AME Church,place_of_worship,38.6043911,-90.1531326
place_of_worship_6139746010,New Bethlehem Missionary Baptist Church,place_of_worship,38.6039523,-90.1522257
place_of_worship_6139746011,Israelite Spiritual Church,place_of_worship,38.6029039,-90.1500612
place_of_worship_6139746039,St. Jude Spiritual Church,place_of_worship,38.6127231,-90.156322
place_of_worship_6143930000,Urban Outreach Worship Center,place_of_worship,38.6247628,-90.1526228
place_of_worship_6146643153,Church of God in Christ Jesus All Nation,place_of_worship,38.6556017,-90.1657333
place_of_worship_6146643183,Transforming Word Church,place_of_worship,38.6580884,-90.1660053
place_of_worship_6744515121,Oak Bridge City,place_of_worship,38.5978663,-90.3009121
place_of_worship_9768534947,Affton Church,place_of_worship,38.5448751,-90.3333068
place_of_worship_9930595841,House of Prayer Church,place_of_worship,38.5755229,-90.254172
place_of_worship_10187538562,Faith Community Bible Church,place_of_worship,38.7238509,-90.250807
place_of_worship_10947669291,All Nations Church,place_of_worship,38.6718792,-90.3398829
place_of_worship_11181554948,West Madison Apostolic Church,place_of_worship,38.6826408,-90.1720744
place_of_worship_11181554953,Rivers of Waters Worship Center,place_of_worship,38.6821681,-90.1712228
place_of_worship_11749238983,One Family Church,place_of_worship,38.6556698,-90.3035886
place_of_worship_11819468413,Blow Your Trumpet Ministries,place_of_worship,38.5703869,-90.24417
place_of_worship_12696903185,St. Louis Epic Community Church,place_of_worship,38.6335214,-90.2373883
place_of_worship_13034481411,Webster United Methodist,place_of_worship,38.6000053,-90.3415974
fire_station_367086148,Riverview Fire Department,fire_station,38.7473245,-90.2112727
fire_station_367086239,Brentwood Fire Department,fire_station,38.618148,-90.348023
fire_station_367086346,Metro North Fire Protection District,fire_station,38.7496717,-90.2692491
fire_station_367086376,Kinloch Fire Department,fire_station,38.7372817,-90.3239007
fire_station_367086408,Maplewood Fire Department,fire_station,38.613245,-90.3260931
fire_station_367086411,Lemay Fire Department,fire_station,38.532323,-90.287198
fire_station_368066712,East Saint Louis Fire Department,fire_station,38.6038715,-90.1591665
fire_station_2743831500,fire_station_2743831500,fire_station,38.7104107,-90.1609606
fire_station_4978394419,Cahokia Fire Protection District House 1,fire_station,38.5703319,-90.1915935
fire_station_11170777160,Venice Fire Department,fire_station,38.6726407,-90.1701915
fire_station_11748999470,University City Fire House,fire_station,38.661519,-90.3038036
library_368067071,Madison Public Library,library,38.6808835,-90.1517758
library_1978028411,"St. Louis County Library, Natural Bridge Branch",library,38.7049283,-90.3020021
library_3843348045,Charing Cross Public Library,library,38.6515,-90.3001367
library_4217523983,Richardson Memorial Library,library,38.6388753,-90.2953861
library_5837793049,UHSP Library,library,38.6369149,-90.2607651
library_7146916059,"St. Louis County Library, Lewis and Clark Branch",library,38.7479533,-90.2404769
library_12957909757,Richmond Heights Memorial Library,library,38.6285629,-90.3308108
library_12957920420,Brentwood Public Library,library,38.6180581,-90.347905
